$GPGGA,011623,3146.0000,S,11623.0000,E,2,12,0.1,,,,,,*42
$GPGGA,011640,3139.0000,S,11640.0000,E,2,12,0.1,,,,,,*42
$GPGGA,011701,3137.0000,S,11701.0000,E,2,12,0.1,,,,,,*42
$GPGGA,011714,3139.0000,S,11714.0000,E,2,12,0.1,,,,,,*42
$GPGGA,011743,3138.0000,S,11743.0000,E,2,12,0.1,,,,,,*42
$GPGGA,011804,3132.0000,S,11804.0000,E,2,12,0.1,,,,,,*42
$GPGGA,011816,3129.0000,S,11816.0000,E,2,12,0.1,,,,,,*42
$GPGGA,011829,3124.0000,S,11829.0000,E,2,12,0.1,,,,,,*42
$GPGGA,011851,3122.0000,S,11851.0000,E,2,12,0.1,,,,,,*42
$GPGGA,011919,3114.0000,S,11919.0000,E,2,12,0.1,,,,,,*42
$GPGGA,011939,3118.0000,S,11939.0000,E,2,12,0.1,,,,,,*42
$GPGGA,011951,3110.0000,S,11951.0000,E,2,12,0.1,,,,,,*42
$GPGGA,012018,3112.0000,S,12018.0000,E,2,12,0.1,,,,,,*42
$GPGGA,012052,3101.0000,S,12052.0000,E,2,12,0.1,,,,,,*42
$GPGGA,012109,3057.0000,S,12109.0000,E,2,12,0.1,,,,,,*42
$GPGGA,012134,3130.0000,S,12134.0000,E,2,12,0.1,,,,,,*42
$GPGGA,012147,3212.0000,S,12147.0000,E,2,12,0.1,,,,,,*42
$GPGGA,012248,3203.0000,S,12248.0000,E,2,12,0.1,,,,,,*42
$GPGGA,012310,3207.0000,S,12310.0000,E,2,12,0.1,,,,,,*42
$GPGGA,012352,3228.0000,S,12352.0000,E,2,12,0.1,,,,,,*42
$GPGGA,012357,3221.0000,S,12357.0000,E,2,12,0.1,,,,,,*42
$GPGGA,012529,3216.0000,S,12529.0000,E,2,12,0.1,,,,,,*42
$GPGGA,012606,3203.0000,S,12606.0000,E,2,12,0.1,,,,,,*42
$GPGGA,012700,3154.0000,S,12700.0000,E,2,12,0.1,,,,,,*42
$GPGGA,012853,3141.0000,S,12853.0000,E,2,12,0.1,,,,,,*42
$GPGGA,012951,3127.0000,S,12951.0000,E,2,12,0.1,,,,,,*42
$GPGGA,013054,3126.0000,S,13054.0000,E,2,12,0.1,,,,,,*42
$GPGGA,013118,3116.0000,S,13118.0000,E,2,12,0.1,,,,,,*42
$GPGGA,013150,3129.0000,S,13150.0000,E,2,12,0.1,,,,,,*42
$GPGGA,013204,3138.0000,S,13204.0000,E,2,12,0.1,,,,,,*42
$GPGGA,013212,3147.0000,S,13212.0000,E,2,12,0.1,,,,,,*42
$GPGGA,013242,3151.0000,S,13242.0000,E,2,12,0.1,,,,,,*42
$GPGGA,013301,3156.0000,S,13301.0000,E,2,12,0.1,,, , , , *42
$GPGGA,013341,3208.0000,S,13341.0000,E,2,12,0.1, , , , , , *42
$GPGGA,013432,3224.0000,S,13432.0000,E,2,12,0.1, , , , , , *42
$GPGGA,013444,3234.0000,S,13444.0000,E,2,12,0.1, , , , , , *42
$GPGGA,013450,3243.0000,S,13450.0000,E,2,12,0.1, , , , , , *42
$GPGGA,013509,3251.0000,S,13509.0000,E,2,12,0.1, , , , , , *42
$GPGGA,013516,3257.0000,S,13516.0000,E,2,12,0.1, , , , , , *42
$GPGGA,013528,3303.0000,S,13528.0000,E,2,12,0.1, , , , , , *42
$GPGGA,013533,3308.0000,S,13533.0000,E,2,12,0.1, , , , , , *42
$GPGGA,013553,3310.0000,S,13553.0000,E,2,12,0.1, , , , , , *42
$GPGGA,013619,3314.0000,S,13619.0000,E,2,12,0.1, , , , , , *42
$GPGGA,013625,3308.0000,S,13625.0000,E,2,12,0.1, , , , , , *42
$GPGGA,013656,3259.0000,S,13656.0000,E,2,12,0.1, , , , , , *42
$GPGGA,013709,3244.0000,S,13709.0000,E,2,12,0.1, , , , , , *42
$GPGGA,013726,3238.0000,S,13726.0000,E,2,12,0.1, , , , , , *42
$GPGGA,013740,3238.0000,S,13740.0000,E,2,12,0.1, , , , , , *42
$GPGGA,013746,3230.0000,S,13746.0000,E,2,12,0.1, , , , , , *42
$GPGGA,013756,3242.0000,S,13756.0000,E,2,12,0.1, , , , , , *42
$GPGGA,013800,3301.0000,S,13800.0000,E,2,12,0.1, , , , , , *42
$GPGGA,013812,3321.0000,S,13812.0000,E,2,12,0.1, , , , , , *42
$GPGGA,013827,3328.0000,S,13827.0000,E,2,12,0.1, , , , , , *42
$GPGGA,013837,3330.0000,S,13837.0000,E,2,12,0.1, , , , , , *42
$GPGGA,013856,3341.0000,S,13856.0000,E,2,12,0.1, , , , , , *42
$GPGGA,013921,3351.0000,S,13921.0000,E,2,12,0.1, , , , , , *42
$GPGGA,013940,3402.0000,S,13940.0000,E,2,12,0.1, , , , , , *42
$GPGGA,013958,3306.0000,S,13958.0000,E,2,12,0.1, , , , , , *42
$GPGGA,014045,3410.0000,S,14045.0000,E,2,12,0.1, , , , , , *42
$GPGGA,014052,3416.0000,S,14052.0000,E,2,12,0.1, , , , , , *42
$GPGGA,014135,3416.0000,S,14135.0000,E,2,12,0.1,,,,,,*42
$GPGGA,014210,3411.0000,S,14210.0000,E,2,12,0.1,, , , , , *42
$GPGGA,014244,3435.0000,S,14244.0000,E,2,12,0.1, , , , , , *42
$GPGGA,014334,3438.0000,S,14334.0000,E,2,12,0.1, , , , , , *42
$GPGGA,014451,3430.0000,S,14451.0000,E,2,12,0.1, , , , , , *42
$GPGGA,014526,3419.0000,S,14526.0000,E,2,12,0.1, , , , , , *42
$GPGGA,014600,3434.0000,S,14600.0000,E,2,12,0.1, , , , , , *42
$GPGGA,014633,3445.0000,S,14633.0000,E,2,12,0.1, , , , , , *42
$GPGGA,014649,3500.0000,S,14649.0000,E,2,12,0.1, , , , , , *42
$GPGGA,014707,3505.0000,S,14707.0000,E,2,12,0.1, , , , , , *42
$GPGGA,014722,3507.0000,S,14722.0000,E,2,12,0.1, , , , , , *42
$GPGGA,014728,3509.0000,S,14728.0000,E,2,12,0.1, , , , , , *42
$GPGGA,014807,3504.0000,S,14807.0000,E,2,12,0.1, , , , , , *42
$GPGGA,014819,3450.0000,S,14819.0000,E,2,12,0.1, , , , , , *42
$GPGGA,014839,3449.0000,S,14839.0000,E,2,12,0.1, , , , , , *42
$GPGGA,014855,3451.0000,S,14855.0000,E,2,12,0.1, , , , , , *42
$GPGGA,014916,3447.0000,S,14916.0000,E,2,12,0.1, , , , , , *42
$GPGGA,014943,3445.0000,S,14943.0000,E,2,12,0.1, , , , , , *42
$GPGGA,015000,3443.0000,S,15000.0000,E,2,12,0.1, , , , , , *42
$GPGGA,015027,3427.0000,S,15027.0000,E,2,12,0.1, , , , , , *42
$GPGGA,015037,3411.0000,S,15037.0000,E,2,12,0.1, , , , , , *42
$GPGGA,015049,3404.0000,S,15049.0000,E,2,12,0.1, , , , , , *42
$GPGGA,015113,3353.0000,S,15113.0000,E,2,12,0.1, , , , , , *42